{
"type": "FeatureCollection",
"name": "Canal Moderno Dummy Dataset",
"features": [
{ "type": "Feature", "properties": { "col0": "0", "nombre": "OXXO Paseo del Acueducto", "nps": "39.9", "fillfoundrate": "97.7", "damage_rate": "0.55", "out_of_stock": "3.57", "complaint_resolution_time_hrs": "24.7" }, "geometry": { "type": "Point", "coordinates": [ -100.2998256, 25.6244792 ] } },
{ "type": "Feature", "properties": { "col0": "1", "nombre": "Oxxo Junco de la Vega", "nps": "27.2", "fillfoundrate": "100.1", "damage_rate": "0.76", "out_of_stock": "4.14", "complaint_resolution_time_hrs": "28.0" }, "geometry": { "type": "Point", "coordinates": [ -100.2896037, 25.6538224 ] } },
{ "type": "Feature", "properties": { "col0": "2", "nombre": "Plaza Nuevo Sur", "nps": "43.0", "fillfoundrate": "96.9", "damage_rate": "0.18", "out_of_stock": "3.95", "complaint_resolution_time_hrs": "33.5" }, "geometry": { "type": "Point", "coordinates": [ -100.2756426, 25.6535732 ] } },
{ "type": "Feature", "properties": { "col0": "3", "nombre": "OXXO Platón Sánchez", "nps": "60.5", "fillfoundrate": "100.1", "damage_rate": "0.54", "out_of_stock": "3.65", "complaint_resolution_time_hrs": "16.6" }, "geometry": { "type": "Point", "coordinates": [ -100.3031637, 25.6734108 ] } },
{ "type": "Feature", "properties": { "col0": "4", "nombre": "Oxxo COLIMA II", "nps": "25.3", "fillfoundrate": "91.8", "damage_rate": "0.55", "out_of_stock": "2.68", "complaint_resolution_time_hrs": "36.8" }, "geometry": { "type": "Point", "coordinates": [ -100.3216174, 25.6597296 ] } },
{ "type": "Feature", "properties": { "col0": "5", "nombre": "Oxxo Av. Eugenio", "nps": "25.3", "fillfoundrate": "98.6", "damage_rate": "0.66", "out_of_stock": "3.76", "complaint_resolution_time_hrs": "12.3" }, "geometry": { "type": "Point", "coordinates": [ -100.2942107, 25.6553848 ] } },
{ "type": "Feature", "properties": { "col0": "6", "nombre": "El Primer OXXO linda vista", "nps": "61.6", "fillfoundrate": "97.2", "damage_rate": "7.0", "out_of_stock": "2.23", "complaint_resolution_time_hrs": "23.1" }, "geometry": { "type": "Point", "coordinates": [ -100.2543342, 25.6927878 ] } },
{ "type": "Feature", "properties": { "col0": "7", "nombre": "Oxxo Nueva Independencia", "nps": "45.3", "fillfoundrate": "96.4", "damage_rate": "0.24", "out_of_stock": "2.76", "complaint_resolution_time_hrs": "27.5" }, "geometry": { "type": "Point", "coordinates": [ -100.3058143, 25.654084 ] } },
{ "type": "Feature", "properties": { "col0": "8", "nombre": "OXXO PABELLON M ( Oxxo temática M&M )", "nps": "20.6", "fillfoundrate": "97.2", "damage_rate": "0.6", "out_of_stock": "2.51", "complaint_resolution_time_hrs": "100.0" }, "geometry": { "type": "Point", "coordinates": [ -100.3168933, 25.6662796 ] } },
{ "type": "Feature", "properties": { "col0": "9", "nombre": "Oxxo Nazas", "nps": "40.9", "fillfoundrate": "93.0", "damage_rate": "0.56", "out_of_stock": "3.08", "complaint_resolution_time_hrs": "20.3" }, "geometry": { "type": "Point", "coordinates": [ -100.3048224, 25.641375 ] } },
{ "type": "Feature", "properties": { "col0": "10", "nombre": "OXXO Libertad", "nps": "20.7", "fillfoundrate": "96.6", "damage_rate": "0.55", "out_of_stock": "5.31", "complaint_resolution_time_hrs": "22.8" }, "geometry": { "type": "Point", "coordinates": [ -100.3021251, 25.6561946 ] } },
{ "type": "Feature", "properties": { "col0": "11", "nombre": "Oxxo Más palomas", "nps": "20.7", "fillfoundrate": "97.7", "damage_rate": "0.57", "out_of_stock": "1.13", "complaint_resolution_time_hrs": "21.0" }, "geometry": { "type": "Point", "coordinates": [ -100.2841294, 25.6345686 ] } },
{ "type": "Feature", "properties": { "col0": "12", "nombre": "Oxxo Elizondo", "nps": "34.8", "fillfoundrate": "100.0", "damage_rate": "0.36", "out_of_stock": "3.69", "complaint_resolution_time_hrs": "20.5" }, "geometry": { "type": "Point", "coordinates": [ -100.2970849, 25.6444172 ] } },
{ "type": "Feature", "properties": { "col0": "13", "nombre": "7-Eleven Av. Del Estado", "nps": "-8.3", "fillfoundrate": "96.0", "damage_rate": "0.55", "out_of_stock": "1.39", "complaint_resolution_time_hrs": "29.1" }, "geometry": { "type": "Point", "coordinates": [ -100.29252, 25.651034 ] } },
{ "type": "Feature", "properties": { "col0": "14", "nombre": "7-Eleven Alameda", "nps": "-4.5", "fillfoundrate": "95.4", "damage_rate": "0.56", "out_of_stock": "2.53", "complaint_resolution_time_hrs": "26.1" }, "geometry": { "type": "Point", "coordinates": [ -100.3230559, 25.6766454 ] } },
{ "type": "Feature", "properties": { "col0": "15", "nombre": "7-Eleven Río Salado", "nps": "18.8", "fillfoundrate": "96.0", "damage_rate": "0.36", "out_of_stock": "4.09", "complaint_resolution_time_hrs": "19.8" }, "geometry": { "type": "Point", "coordinates": [ -100.296155, 25.6480586 ] } },
{ "type": "Feature", "properties": { "col0": "16", "nombre": "7-Eleven Nuevo Repueblo", "nps": "9.7", "fillfoundrate": "98.8", "damage_rate": "0.87", "out_of_stock": "3.06", "complaint_resolution_time_hrs": "29.4" }, "geometry": { "type": "Point", "coordinates": [ -100.2974763, 25.6632932 ] } },
{ "type": "Feature", "properties": { "col0": "17", "nombre": "7-Eleven Florencio Antillón", "nps": "36.3", "fillfoundrate": "97.7", "damage_rate": "0.59", "out_of_stock": "1.92", "complaint_resolution_time_hrs": "25.8" }, "geometry": { "type": "Point", "coordinates": [ -100.3018061, 25.6694369 ] } },
{ "type": "Feature", "properties": { "col0": "18", "nombre": "7-Eleven Constitución", "nps": "11.8", "fillfoundrate": "95.9", "damage_rate": "0.26", "out_of_stock": "2.28", "complaint_resolution_time_hrs": "28.9" }, "geometry": { "type": "Point", "coordinates": [ -100.3039312, 25.6661872 ] } },
{ "type": "Feature", "properties": { "col0": "19", "nombre": "7-Eleven Benito Juarez", "nps": "1.8", "fillfoundrate": "98.0", "damage_rate": "0.63", "out_of_stock": "3.68", "complaint_resolution_time_hrs": "27.8" }, "geometry": { "type": "Point", "coordinates": [ -100.3138665, 25.681222 ] } },
{ "type": "Feature", "properties": { "col0": "20", "nombre": "7-Eleven Parque Tecnológico", "nps": "59.3", "fillfoundrate": "97.2", "damage_rate": "0.31", "out_of_stock": "2.27", "complaint_resolution_time_hrs": "19.0" }, "geometry": { "type": "Point", "coordinates": [ -100.2930932, 25.6484332 ] } },
{ "type": "Feature", "properties": { "col0": "21", "nombre": "7-Eleven Av. Fundadores", "nps": "25.5", "fillfoundrate": "98.9", "damage_rate": "0.66", "out_of_stock": "3.22", "complaint_resolution_time_hrs": "20.6" }, "geometry": { "type": "Point", "coordinates": [ -100.3203859, 25.639296 ] } },
{ "type": "Feature", "properties": { "col0": "22", "nombre": "7-Eleven Galeana", "nps": "31.4", "fillfoundrate": "95.6", "damage_rate": "0.73", "out_of_stock": "3.05", "complaint_resolution_time_hrs": "28.5" }, "geometry": { "type": "Point", "coordinates": [ -100.3132943, 25.6715179 ] } },
{ "type": "Feature", "properties": { "col0": "23", "nombre": "Modelorama Río Nazas", "nps": "1.5", "fillfoundrate": "96.3", "damage_rate": "0.34", "out_of_stock": "2.35", "complaint_resolution_time_hrs": "27.7" }, "geometry": { "type": "Point", "coordinates": [ -100.3045456, 25.6415481 ] } },
{ "type": "Feature", "properties": { "col0": "24", "nombre": "Modelorama Np-Mod. Heroes Del 47", "nps": "19.1", "fillfoundrate": "96.2", "damage_rate": "0.69", "out_of_stock": "5.14", "complaint_resolution_time_hrs": "23.9" }, "geometry": { "type": "Point", "coordinates": [ -100.2981379, 25.6894471 ] } },
{ "type": "Feature", "properties": { "col0": "25", "nombre": "Modelorama Texcoco", "nps": "100.0", "fillfoundrate": "94.1", "damage_rate": "0.58", "out_of_stock": "3.63", "complaint_resolution_time_hrs": "24.7" }, "geometry": { "type": "Point", "coordinates": [ -100.2729309, 25.6678005 ] } },
{ "type": "Feature", "properties": { "col0": "26", "nombre": "Modelorama Priv San Miguel 105", "nps": "7.0", "fillfoundrate": "97.6", "damage_rate": "0.66", "out_of_stock": "0.97", "complaint_resolution_time_hrs": "31.7" }, "geometry": { "type": "Point", "coordinates": [ -100.2716526, 25.6763548 ] } },
{ "type": "Feature", "properties": { "col0": "27", "nombre": "Modelorama Np-Mod Estadio", "nps": "37.5", "fillfoundrate": "97.5", "damage_rate": "0.88", "out_of_stock": "3.19", "complaint_resolution_time_hrs": "20.5" }, "geometry": { "type": "Point", "coordinates": [ -100.2391702, 25.6693177 ] } },
{ "type": "Feature", "properties": { "col0": "28", "nombre": "Modelorama Np Villa", "nps": "18.0", "fillfoundrate": "97.0", "damage_rate": "0.45", "out_of_stock": "2.34", "complaint_resolution_time_hrs": "27.3" }, "geometry": { "type": "Point", "coordinates": [ -100.236682, 25.6730685 ] } },
{ "type": "Feature", "properties": { "col0": "29", "nombre": "Modelorama NP Los Rosales", "nps": "24.2", "fillfoundrate": "82.0", "damage_rate": "0.35", "out_of_stock": "3.85", "complaint_resolution_time_hrs": "22.8" }, "geometry": { "type": "Point", "coordinates": [ -100.2941104, 25.6295979 ] } },
{ "type": "Feature", "properties": { "col0": "30", "nombre": "Modelorama Np-Mod Abrazo De Acatempan", "nps": "18.0", "fillfoundrate": "94.2", "damage_rate": "0.32", "out_of_stock": "2.21", "complaint_resolution_time_hrs": "22.7" }, "geometry": { "type": "Point", "coordinates": [ -100.2598368, 25.6987336 ] } },
{ "type": "Feature", "properties": { "col0": "31", "nombre": "Modelorama Np-Mod. Buenos Aires", "nps": "67.0", "fillfoundrate": "96.2", "damage_rate": "0.34", "out_of_stock": "2.89", "complaint_resolution_time_hrs": "30.6" }, "geometry": { "type": "Point", "coordinates": [ -100.2839832, 25.6575154 ] } },
{ "type": "Feature", "properties": { "col0": "32", "nombre": "Modelorama NP-Mod Bernardo Reyes", "nps": "29.7", "fillfoundrate": "96.3", "damage_rate": "0.48", "out_of_stock": "3.5", "complaint_resolution_time_hrs": "29.0" }, "geometry": { "type": "Point", "coordinates": [ -100.325968, 25.705621 ] } },
{ "type": "Feature", "properties": { "col0": "33", "nombre": "Tiendas Six Alfonso Reyes", "nps": "-95.0", "fillfoundrate": "95.4", "damage_rate": "0.57", "out_of_stock": "3.87", "complaint_resolution_time_hrs": "28.9" }, "geometry": { "type": "Point", "coordinates": [ -100.3166773, 25.6925185 ] } },
{ "type": "Feature", "properties": { "col0": "34", "nombre": "Tiendas Six Cuauhtémoc Nte", "nps": "46.5", "fillfoundrate": "96.7", "damage_rate": "0.56", "out_of_stock": "1.8", "complaint_resolution_time_hrs": "31.8" }, "geometry": { "type": "Point", "coordinates": [ -100.2655724, 25.6781307 ] } },
{ "type": "Feature", "properties": { "col0": "35", "nombre": "Tiendas Six Leandro Mtz", "nps": "5.6", "fillfoundrate": "97.8", "damage_rate": "0.67", "out_of_stock": "2.67", "complaint_resolution_time_hrs": "24.1" }, "geometry": { "type": "Point", "coordinates": [ -100.2831406, 25.6880745 ] } },
{ "type": "Feature", "properties": { "col0": "36", "nombre": "Tiendas Six Huajuco", "nps": "34.2", "fillfoundrate": "100.8", "damage_rate": "0.5", "out_of_stock": "2.53", "complaint_resolution_time_hrs": "28.1" }, "geometry": { "type": "Point", "coordinates": [ -100.2716465, 25.6596646 ] } },
{ "type": "Feature", "properties": { "col0": "37", "nombre": "Tiendas Six Thomas A. Edison", "nps": "-9.2", "fillfoundrate": "97.3", "damage_rate": "0.79", "out_of_stock": "2.35", "complaint_resolution_time_hrs": "22.1" }, "geometry": { "type": "Point", "coordinates": [ -100.3321607, 25.6956167 ] } },
{ "type": "Feature", "properties": { "col0": "38", "nombre": "Tiendas Six Julián Villagrán", "nps": "3.4", "fillfoundrate": "97.5", "damage_rate": "0.45", "out_of_stock": "4.77", "complaint_resolution_time_hrs": "25.9" }, "geometry": { "type": "Point", "coordinates": [ -100.321653, 25.6940244 ] } },
{ "type": "Feature", "properties": { "col0": "39", "nombre": "Tienda Six Chiapas", "nps": "33.9", "fillfoundrate": "96.9", "damage_rate": "1.04", "out_of_stock": "3.4", "complaint_resolution_time_hrs": "23.2" }, "geometry": { "type": "Point", "coordinates": [ -100.30295, 25.6520937 ] } },
{ "type": "Feature", "properties": { "col0": "40", "nombre": "Tiendas Six José M. Jiménez", "nps": "44.8", "fillfoundrate": "93.2", "damage_rate": "0.63", "out_of_stock": "1.74", "complaint_resolution_time_hrs": "24.6" }, "geometry": { "type": "Point", "coordinates": [ -100.3161846, 25.6839103 ] } },
{ "type": "Feature", "properties": { "col0": "41", "nombre": "Tiendas Six Manuel M. Lombardini", "nps": "33.4", "fillfoundrate": "96.9", "damage_rate": "0.33", "out_of_stock": "3.92", "complaint_resolution_time_hrs": "27.6" }, "geometry": { "type": "Point", "coordinates": [ -100.3315497, 25.698789 ] } },
{ "type": "Feature", "properties": { "col0": "42", "nombre": "Tiendas Six Manuel Doblado", "nps": "27.7", "fillfoundrate": "97.1", "damage_rate": "0.29", "out_of_stock": "5.12", "complaint_resolution_time_hrs": "19.1" }, "geometry": { "type": "Point", "coordinates": [ -100.3031809, 25.7004591 ] } },
{ "type": "Feature", "properties": { "col0": "43", "nombre": "H-E-B Contry", "nps": "24.0", "fillfoundrate": "101.9", "damage_rate": "0.6", "out_of_stock": "4.03", "complaint_resolution_time_hrs": "36.6" }, "geometry": { "type": "Point", "coordinates": [ -100.274981, 25.626203 ] } },
{ "type": "Feature", "properties": { "col0": "44", "nombre": "H-E-B Tec", "nps": "0.4", "fillfoundrate": "96.6", "damage_rate": "0.46", "out_of_stock": "1.48", "complaint_resolution_time_hrs": "18.0" }, "geometry": { "type": "Point", "coordinates": [ -100.2853865, 25.642921 ] } },
{ "type": "Feature", "properties": { "col0": "45", "nombre": "H-E-B Chapultepec", "nps": "15.6", "fillfoundrate": "97.6", "damage_rate": "0.64", "out_of_stock": "2.52", "complaint_resolution_time_hrs": "16.7" }, "geometry": { "type": "Point", "coordinates": [ -100.267984, 25.666667 ] } },
{ "type": "Feature", "properties": { "col0": "46", "nombre": "H-E-B Valle Oriente", "nps": "20.8", "fillfoundrate": "96.9", "damage_rate": "0.59", "out_of_stock": "4.27", "complaint_resolution_time_hrs": "30.9" }, "geometry": { "type": "Point", "coordinates": [ -100.332814, 25.641632 ] } },
{ "type": "Feature", "properties": { "col0": "47", "nombre": "Soriana Híper Guadalupe", "nps": "51.1", "fillfoundrate": "94.7", "damage_rate": "0.49", "out_of_stock": "2.29", "complaint_resolution_time_hrs": "28.7" }, "geometry": { "type": "Point", "coordinates": [ -100.2517633, 25.6803644 ] } },
{ "type": "Feature", "properties": { "col0": "48", "nombre": "Soriana Super Simon Bolivar", "nps": "36.9", "fillfoundrate": "99.3", "damage_rate": "0.33", "out_of_stock": "3.44", "complaint_resolution_time_hrs": "27.7" }, "geometry": { "type": "Point", "coordinates": [ -100.3437146, 25.6971592 ] } },
{ "type": "Feature", "properties": { "col0": "49", "nombre": "Soriana Express Colon Mty", "nps": "-5.3", "fillfoundrate": "98.5", "damage_rate": "0.2", "out_of_stock": "3.77", "complaint_resolution_time_hrs": "27.8" }, "geometry": { "type": "Point", "coordinates": [ -100.319398, 25.6862359 ] } },
{ "type": "Feature", "properties": { "col0": "50", "nombre": "Soriana Hiper Miguel Alemán", "nps": "36.5", "fillfoundrate": "88.0", "damage_rate": "0.41", "out_of_stock": "2.07", "complaint_resolution_time_hrs": "23.9" }, "geometry": { "type": "Point", "coordinates": [ -100.2555766, 25.6884011 ] } },
{ "type": "Feature", "properties": { "col0": "51", "nombre": "Soriana Súper San Agustin", "nps": "22.3", "fillfoundrate": "95.2", "damage_rate": "0.67", "out_of_stock": "2.94", "complaint_resolution_time_hrs": "18.6" }, "geometry": { "type": "Point", "coordinates": [ -100.3388509, 25.6501936 ] } },
{ "type": "Feature", "properties": { "col0": "52", "nombre": "Soriana Súper Fundidora", "nps": "16.5", "fillfoundrate": "99.8", "damage_rate": "0.54", "out_of_stock": "0.24", "complaint_resolution_time_hrs": "24.5" }, "geometry": { "type": "Point", "coordinates": [ -100.2995386, 25.6828727 ] } },
{ "type": "Feature", "properties": { "col0": "53", "nombre": "Soriana Super Vista Hermosa", "nps": "42.2", "fillfoundrate": "94.2", "damage_rate": "0.25", "out_of_stock": "1.98", "complaint_resolution_time_hrs": "19.9" }, "geometry": { "type": "Point", "coordinates": [ -100.3552923, 25.6920617 ] } },
{ "type": "Feature", "properties": { "col0": "54", "nombre": "Soriana Híper Garza Sada", "nps": "50.6", "fillfoundrate": "98.2", "damage_rate": "0.53", "out_of_stock": "2.75", "complaint_resolution_time_hrs": "29.9" }, "geometry": { "type": "Point", "coordinates": [ -100.2962106, 25.6612384 ] } },
{ "type": "Feature", "properties": { "col0": "55", "nombre": "Soriana Híper Contry", "nps": "48.6", "fillfoundrate": "101.4", "damage_rate": "0.58", "out_of_stock": "1.75", "complaint_resolution_time_hrs": "23.1" }, "geometry": { "type": "Point", "coordinates": [ -100.2826, 25.6393 ] } },
{ "type": "Feature", "properties": { "col0": "56", "nombre": "Soriana Híper Las Torres", "nps": "13.2", "fillfoundrate": "95.0", "damage_rate": "0.32", "out_of_stock": "4.63", "complaint_resolution_time_hrs": "19.0" }, "geometry": { "type": "Point", "coordinates": [ -100.2956111, 25.6291435 ] } },
{ "type": "Feature", "properties": { "col0": "57", "nombre": "Walmart Gómez Morin", "nps": "23.8", "fillfoundrate": "95.9", "damage_rate": "0.53", "out_of_stock": "1.57", "complaint_resolution_time_hrs": "22.1" }, "geometry": { "type": "Point", "coordinates": [ -100.3617043, 25.6438187 ] } },
{ "type": "Feature", "properties": { "col0": "58", "nombre": "Walmart Guadalupe", "nps": "36.6", "fillfoundrate": "97.2", "damage_rate": "0.51", "out_of_stock": "2.56", "complaint_resolution_time_hrs": "26.5" }, "geometry": { "type": "Point", "coordinates": [ -100.2025358, 25.6732229 ] } },
{ "type": "Feature", "properties": { "col0": "59", "nombre": "Walmart Eloy Cavazos", "nps": "49.5", "fillfoundrate": "96.0", "damage_rate": "0.27", "out_of_stock": "3.13", "complaint_resolution_time_hrs": "20.6" }, "geometry": { "type": "Point", "coordinates": [ -100.2095845, 25.6524264 ] } },
{ "type": "Feature", "properties": { "col0": "60", "nombre": "Walmart Las Torres", "nps": "20.4", "fillfoundrate": "93.9", "damage_rate": "0.57", "out_of_stock": "4.44", "complaint_resolution_time_hrs": "19.1" }, "geometry": { "type": "Point", "coordinates": [ -100.2737235, 25.615776 ] } },
{ "type": "Feature", "properties": { "col0": "61", "nombre": "Walmart Plaza Centrika", "nps": "26.3", "fillfoundrate": "97.1", "damage_rate": "0.61", "out_of_stock": "1.56", "complaint_resolution_time_hrs": "25.5" }, "geometry": { "type": "Point", "coordinates": [ -100.3081995, 25.7013601 ] } },
{ "type": "Feature", "properties": { "col0": "62", "nombre": "Walmart Valle Oriente", "nps": "7.9", "fillfoundrate": "94.9", "damage_rate": "0.72", "out_of_stock": "4.16", "complaint_resolution_time_hrs": "25.5" }, "geometry": { "type": "Point", "coordinates": [ -100.3159872, 25.6389107 ] } }
]
}
